{"ast":null,"code":"var _jsxFileName = \"/Users/frederikjanssen/Desktop/FJ FINAL PROJECT/clientside/src/components/Home/Map/Map.js\";\nimport React from 'react';\nimport { GoogleMap, LoadScript, Marker } from '@react-google-maps/api';\nimport { jsxDEV as _jsxDEV } from \"react/jsx-dev-runtime\";\n\nfunction Map() {\n  const mapStyles = {\n    height: \"100vh\",\n    width: \"100%\"\n  };\n  const defaultCenter = {\n    lat: 41.3851,\n    lng: 2.1734\n  };\n  const locations = [{\n    name: \"Location 1\",\n    location: {\n      lat: 41.3954,\n      lng: 2.162\n    }\n  }, {\n    name: \"Location 2\",\n    location: {\n      lat: 41.3917,\n      lng: 2.1649\n    }\n  }, {\n    name: \"Location 3\",\n    location: {\n      lat: 41.3773,\n      lng: 2.1585\n    }\n  }, {\n    name: \"Location 4\",\n    location: {\n      lat: 41.3797,\n      lng: 2.1682\n    }\n  }, {\n    name: \"Location 5\",\n    location: {\n      lat: 41.4055,\n      lng: 2.1915\n    }\n  }];\n  return /*#__PURE__*/_jsxDEV(LoadScript, {\n    googleMapsApiKey: \"AIzaSyCZCT3bmiMcc3TcYVE1UQTbf3suEJmgpa4\",\n    children: [/*#__PURE__*/_jsxDEV(GoogleMap, {\n      mapContainerStyle: mapStyles,\n      zoom: 13,\n      center: defaultCenter\n    }, void 0, false, {\n      fileName: _jsxFileName,\n      lineNumber: 54,\n      columnNumber: 9\n    }, this), locations.map(item => {\n      console.log(item);\n      return /*#__PURE__*/_jsxDEV(Marker, {\n        position: item.location\n      }, item.name, false, {\n        fileName: _jsxFileName,\n        lineNumber: 63,\n        columnNumber: 15\n      }, this);\n    })]\n  }, void 0, true, {\n    fileName: _jsxFileName,\n    lineNumber: 52,\n    columnNumber: 5\n  }, this);\n}\n\n_c = Map;\nexport default Map;\n\nvar _c;\n\n$RefreshReg$(_c, \"Map\");","map":{"version":3,"names":["React","GoogleMap","LoadScript","Marker","Map","mapStyles","height","width","defaultCenter","lat","lng","locations","name","location","map","item","console","log"],"sources":["/Users/frederikjanssen/Desktop/FJ FINAL PROJECT/clientside/src/components/Home/Map/Map.js"],"sourcesContent":["import React from 'react';\nimport { GoogleMap, LoadScript, Marker } from '@react-google-maps/api';\n\nfunction Map() {\n  const mapStyles = {        \n    height: \"100vh\",\n    width: \"100%\"};\n  \n  const defaultCenter = {\n    lat: 41.3851, lng: 2.1734\n  }\n\n  const locations = [\n    {\n      name: \"Location 1\",\n      location: { \n        lat: 41.3954,\n        lng: 2.162 \n      },\n    },\n    {\n      name: \"Location 2\",\n      location: { \n        lat: 41.3917,\n        lng: 2.1649\n      },\n    },\n    {\n      name: \"Location 3\",\n      location: { \n        lat: 41.3773,\n        lng: 2.1585\n      },\n    },\n    {\n      name: \"Location 4\",\n      location: { \n        lat: 41.3797,\n        lng: 2.1682\n      },\n    },\n    {\n      name: \"Location 5\",\n      location: { \n        lat: 41.4055,\n        lng: 2.1915\n      },\n    }\n  ];\n\n  return (\n    <LoadScript\n       googleMapsApiKey='AIzaSyCZCT3bmiMcc3TcYVE1UQTbf3suEJmgpa4'>\n        <GoogleMap\n          mapContainerStyle={mapStyles}\n          zoom={13}\n          center={defaultCenter}\n        />\n        {\n            locations.map(item => {\n              console.log(item)\n              return (\n              <Marker key={item.name} position={item.location}/>\n              )\n            })\n         }\n     </LoadScript>\n  )\n}\n\nexport default Map\n"],"mappings":";AAAA,OAAOA,KAAP,MAAkB,OAAlB;AACA,SAASC,SAAT,EAAoBC,UAApB,EAAgCC,MAAhC,QAA8C,wBAA9C;;;AAEA,SAASC,GAAT,GAAe;EACb,MAAMC,SAAS,GAAG;IAChBC,MAAM,EAAE,OADQ;IAEhBC,KAAK,EAAE;EAFS,CAAlB;EAIA,MAAMC,aAAa,GAAG;IACpBC,GAAG,EAAE,OADe;IACNC,GAAG,EAAE;EADC,CAAtB;EAIA,MAAMC,SAAS,GAAG,CAChB;IACEC,IAAI,EAAE,YADR;IAEEC,QAAQ,EAAE;MACRJ,GAAG,EAAE,OADG;MAERC,GAAG,EAAE;IAFG;EAFZ,CADgB,EAQhB;IACEE,IAAI,EAAE,YADR;IAEEC,QAAQ,EAAE;MACRJ,GAAG,EAAE,OADG;MAERC,GAAG,EAAE;IAFG;EAFZ,CARgB,EAehB;IACEE,IAAI,EAAE,YADR;IAEEC,QAAQ,EAAE;MACRJ,GAAG,EAAE,OADG;MAERC,GAAG,EAAE;IAFG;EAFZ,CAfgB,EAsBhB;IACEE,IAAI,EAAE,YADR;IAEEC,QAAQ,EAAE;MACRJ,GAAG,EAAE,OADG;MAERC,GAAG,EAAE;IAFG;EAFZ,CAtBgB,EA6BhB;IACEE,IAAI,EAAE,YADR;IAEEC,QAAQ,EAAE;MACRJ,GAAG,EAAE,OADG;MAERC,GAAG,EAAE;IAFG;EAFZ,CA7BgB,CAAlB;EAsCA,oBACE,QAAC,UAAD;IACG,gBAAgB,EAAC,yCADpB;IAAA,wBAEI,QAAC,SAAD;MACE,iBAAiB,EAAEL,SADrB;MAEE,IAAI,EAAE,EAFR;MAGE,MAAM,EAAEG;IAHV;MAAA;MAAA;MAAA;IAAA,QAFJ,EAQQG,SAAS,CAACG,GAAV,CAAcC,IAAI,IAAI;MACpBC,OAAO,CAACC,GAAR,CAAYF,IAAZ;MACA,oBACA,QAAC,MAAD;QAAwB,QAAQ,EAAEA,IAAI,CAACF;MAAvC,GAAaE,IAAI,CAACH,IAAlB;QAAA;QAAA;QAAA;MAAA,QADA;IAGD,CALD,CARR;EAAA;IAAA;IAAA;IAAA;EAAA,QADF;AAkBD;;KAjEQR,G;AAmET,eAAeA,GAAf"},"metadata":{},"sourceType":"module"}