{"ast":null,"code":"var _jsxFileName = \"/Users/frederikjanssen/Desktop/FJ FINAL PROJECT/clientside/src/components/Home/Map/Map.js\";\nimport React from 'react';\nimport { GoogleMap, LoadScript, Marker } from '@react-google-maps/api';\nimport { jsxDEV as _jsxDEV } from \"react/jsx-dev-runtime\";\n\nconst MapContainer = () => {\n  const mapStyles = {\n    height: \"100vh\",\n    width: \"100%\"\n  };\n  const defaultCenter = {\n    lat: 41.3851,\n    lng: 2.1734\n  };\n  const locations = [{\n    name: \"Location 1\",\n    location: {\n      lat: 41.3954,\n      lng: 2.162\n    }\n  }, {\n    name: \"Location 2\",\n    location: {\n      lat: 41.3917,\n      lng: 2.1649\n    }\n  }, {\n    name: \"Location 3\",\n    location: {\n      lat: 41.3773,\n      lng: 2.1585\n    }\n  }, {\n    name: \"Location 4\",\n    location: {\n      lat: 41.3797,\n      lng: 2.1682\n    }\n  }, {\n    name: \"Location 5\",\n    location: {\n      lat: 41.4055,\n      lng: 2.1915\n    }\n  }];\n  return /*#__PURE__*/_jsxDEV(LoadScript, {\n    googleMapsApiKey: \"AIzaSyCZCT3bmiMcc3TcYVE1UQTbf3suEJmgpa4\",\n    children: /*#__PURE__*/_jsxDEV(GoogleMap, {\n      mapContainerStyle: mapStyles,\n      zoom: 13,\n      center: defaultCenter,\n      children: /*#__PURE__*/_jsxDEV(Marker, {\n        position: defaultCenter\n      }, void 0, false, {\n        fileName: _jsxFileName,\n        lineNumber: 60,\n        columnNumber: 15\n      }, this)\n    }, void 0, false, {\n      fileName: _jsxFileName,\n      lineNumber: 55,\n      columnNumber: 9\n    }, this)\n  }, void 0, false, {\n    fileName: _jsxFileName,\n    lineNumber: 53,\n    columnNumber: 6\n  }, this);\n};\n\n_c = MapContainer;\nexport default MapContainer;\n\nvar _c;\n\n$RefreshReg$(_c, \"MapContainer\");","map":{"version":3,"names":["React","GoogleMap","LoadScript","Marker","MapContainer","mapStyles","height","width","defaultCenter","lat","lng","locations","name","location"],"sources":["/Users/frederikjanssen/Desktop/FJ FINAL PROJECT/clientside/src/components/Home/Map/Map.js"],"sourcesContent":["import React from 'react';\nimport { GoogleMap, LoadScript, Marker } from '@react-google-maps/api';\n\nconst MapContainer = () => {\n  \n  const mapStyles = {        \n    height: \"100vh\",\n    width: \"100%\"};\n  \n  const defaultCenter = {\n    lat: 41.3851, lng: 2.1734\n  }\n\n  const locations = [\n    {\n      name: \"Location 1\",\n      location: { \n        lat: 41.3954,\n        lng: 2.162 \n      },\n    },\n    {\n      name: \"Location 2\",\n      location: { \n        lat: 41.3917,\n        lng: 2.1649\n      },\n    },\n    {\n      name: \"Location 3\",\n      location: { \n        lat: 41.3773,\n        lng: 2.1585\n      },\n    },\n    {\n      name: \"Location 4\",\n      location: { \n        lat: 41.3797,\n        lng: 2.1682\n      },\n    },\n    {\n      name: \"Location 5\",\n      location: { \n        lat: 41.4055,\n        lng: 2.1915\n      },\n    }\n  ];\n  \n  return (\n     <LoadScript\n       googleMapsApiKey='AIzaSyCZCT3bmiMcc3TcYVE1UQTbf3suEJmgpa4'>\n        <GoogleMap\n          mapContainerStyle={mapStyles}\n          zoom={13}\n          center={defaultCenter}\n          >\n              <Marker position={defaultCenter}></Marker>\n          </GoogleMap>\n     </LoadScript>\n  )\n}\n\nexport default MapContainer;"],"mappings":";AAAA,OAAOA,KAAP,MAAkB,OAAlB;AACA,SAASC,SAAT,EAAoBC,UAApB,EAAgCC,MAAhC,QAA8C,wBAA9C;;;AAEA,MAAMC,YAAY,GAAG,MAAM;EAEzB,MAAMC,SAAS,GAAG;IAChBC,MAAM,EAAE,OADQ;IAEhBC,KAAK,EAAE;EAFS,CAAlB;EAIA,MAAMC,aAAa,GAAG;IACpBC,GAAG,EAAE,OADe;IACNC,GAAG,EAAE;EADC,CAAtB;EAIA,MAAMC,SAAS,GAAG,CAChB;IACEC,IAAI,EAAE,YADR;IAEEC,QAAQ,EAAE;MACRJ,GAAG,EAAE,OADG;MAERC,GAAG,EAAE;IAFG;EAFZ,CADgB,EAQhB;IACEE,IAAI,EAAE,YADR;IAEEC,QAAQ,EAAE;MACRJ,GAAG,EAAE,OADG;MAERC,GAAG,EAAE;IAFG;EAFZ,CARgB,EAehB;IACEE,IAAI,EAAE,YADR;IAEEC,QAAQ,EAAE;MACRJ,GAAG,EAAE,OADG;MAERC,GAAG,EAAE;IAFG;EAFZ,CAfgB,EAsBhB;IACEE,IAAI,EAAE,YADR;IAEEC,QAAQ,EAAE;MACRJ,GAAG,EAAE,OADG;MAERC,GAAG,EAAE;IAFG;EAFZ,CAtBgB,EA6BhB;IACEE,IAAI,EAAE,YADR;IAEEC,QAAQ,EAAE;MACRJ,GAAG,EAAE,OADG;MAERC,GAAG,EAAE;IAFG;EAFZ,CA7BgB,CAAlB;EAsCA,oBACG,QAAC,UAAD;IACE,gBAAgB,EAAC,yCADnB;IAAA,uBAEG,QAAC,SAAD;MACE,iBAAiB,EAAEL,SADrB;MAEE,IAAI,EAAE,EAFR;MAGE,MAAM,EAAEG,aAHV;MAAA,uBAKM,QAAC,MAAD;QAAQ,QAAQ,EAAEA;MAAlB;QAAA;QAAA;QAAA;MAAA;IALN;MAAA;MAAA;MAAA;IAAA;EAFH;IAAA;IAAA;IAAA;EAAA,QADH;AAYD,CA5DD;;KAAMJ,Y;AA8DN,eAAeA,YAAf"},"metadata":{},"sourceType":"module"}